{"type":"FeatureCollection","features":[{"type":"Feature","geometry":{"type":"Point","coordinates":[-119.4179,36.7783]},"id":"47dee13b-b2eb-4539-b801-407fb91fd6ca","properties":{"name":"california-usa"}},{"type":"Feature","geometry":{"type":"Point","coordinates":[9.3004,47.7546]},"id":"474bcb48-6da6-412d-b16a-c7d941b55c7a","properties":{"name":"salem-germany"}},{"type":"Feature","geometry":{"type":"Point","coordinates":[-85.6024,44.3148]},"id":"448bca7f-8cd3-47ae-bf00-11553fccf1b6","properties":{"name":"michigan-usa"}},{"type":"Feature","geometry":{"type":"Point","coordinates":[9.3767,47.4245]},"id":"478e19e3-f69c-4793-b249-65964c1c55ac","properties":{"name":"st_gallen-switzerland"}},{"type":"Feature","geometry":{"type":"Point","coordinates":[142.7028,-20.9176]},"id":"8993785f-fd29-4889-83cd-9a69fa2392f2","properties":{"name":"queensland-australia"}},{"type":"Feature","geometry":{"type":"Point","coordinates":[8.5417,47.3769]},"id":"8a627daa-b29d-4192-9892-95f0761a5e2b","properties":{"name":"zurich-switzerland"}},{"type":"Feature","geometry":{"type":"Point","coordinates":[-34.877,-8.0476]},"id":"d41f1812-0053-4035-94db-d38de000d573","properties":{"name":"recife-brazil"}},{"type":"Feature","geometry":{"type":"Point","coordinates":[18.536,54.5189]},"id":"d12ef9f3-4249-447f-bf8d-bcd718daf3ba","properties":{"name":"gdynia-poland"}},{"type":"Feature","geometry":{"type":"Point","coordinates":[-99.9018,31.9686]},"id":"cf6e9d3a-25f9-4823-a776-b1aaffe90d65","properties":{"name":"texas-usa"}},{"type":"Feature","geometry":{"type":"Point","coordinates":[-83.0458,42.3314]},"id":"cad4e0b4-40e3-4ec7-bd4e-1b5e782bb0fd","properties":{"name":"detroit-usa"}},{"type":"Feature","geometry":{"type":"Point","coordinates":[-80.59935149,40.46511619]},"id":"c281ff75-b86b-47dc-a5cb-e0a8c110276e","properties":{"name":"toronto-usa"}},{"type":"Feature","geometry":{"type":"Point","coordinates":[18.2926,49.8209]},"id":"9cb33477-a9ae-4944-a170-084155675f81","properties":{"name":"ostrava-czechia"}},{"type":"Feature","geometry":{"type":"Point","coordinates":[-85.6681,42.9634]},"id":"970fd906-212f-4366-98e5-542e4bebbdef","properties":{"name":"grand_rapids-usa"}},{"type":"Feature","geometry":{"type":"Point","coordinates":[4.4028,51.2194]},"id":"94275261-ef86-444c-aec3-b86c9a700b5e","properties":{"name":"antwerp-belgium"}},{"type":"Feature","geometry":{"type":"Point","coordinates":[-149.5665,-17.5516]},"id":"38aeb805-0316-4cd2-9245-9278c01d50e0","properties":{"name":"papeete-french_polynesia"}},{"type":"Feature","geometry":{"type":"Point","coordinates":[-74.006,40.7128]},"id":"3a96a5aa-ab3c-4a31-816f-c0bdb69ecbc2","properties":{"name":"new_york-usa"}},{"type":"Feature","geometry":{"type":"Point","coordinates":[12.5683,55.6761]},"id":"3da11a94-ca16-46c1-b31d-079f28d842d5","properties":{"name":"copenhagen-denmark"}},{"type":"Feature","geometry":{"type":"Point","coordinates":[17.1077,48.1486]},"id":"3dde3d03-6039-47d6-8443-771bc3c4df48","properties":{"name":"bratislava-slovakia"}},{"type":"Feature","geometry":{"type":"Point","coordinates":[-1.8904,52.4862]},"id":"4353e2bb-803e-4366-9214-b6f1eb55ec11","properties":{"name":"birmingham-uk"}},{"type":"Feature","geometry":{"type":"Point","coordinates":[109.5186,18.2528]},"id":"4e469db4-b141-45a2-a361-02820d603ce4","properties":{"name":"sanya-china"}},{"type":"Feature","geometry":{"type":"Point","coordinates":[-73.4179,40.6782]},"id":"3b83f108-99cf-40a1-a706-ef3ce50243d2","properties":{"name":"amityville-usa"}},{"type":"Feature","geometry":{"type":"Point","coordinates":[-58.3816,-34.6037]},"id":"4313d620-86af-4db5-b71c-b1a1d0766dfd","properties":{"name":"buenos_aires-argentina"}},{"type":"Feature","geometry":{"type":"Point","coordinates":[-86.9023,32.3182]},"id":"480e85eb-7da4-455d-9cf0-88f179da20db","properties":{"name":"alabama-usa"}},{"type":"Feature","geometry":{"type":"Point","coordinates":[139.6489,35.8617]},"id":"a63b961b-07e0-48ba-ba02-957cad5be3a2","properties":{"name":"saitama-japan"}},{"type":"Feature","geometry":{"type":"Point","coordinates":[-90.1994,38.627]},"id":"a6594ac8-6543-4ca2-9478-06f3afb4db49","properties":{"name":"st_louis-usa"}},{"type":"Feature","geometry":{"type":"Point","coordinates":[-76.6502,40.2859]},"id":"a45b58b9-a511-4ada-b64e-372123002bc3","properties":{"name":"hershey-usa"}},{"type":"Feature","geometry":{"type":"Point","coordinates":[-70.6483,-33.4569]},"id":"a3f836dd-24f6-4737-9506-0f7aa307633d","properties":{"name":"santiago-chile"}},{"type":"Feature","geometry":{"type":"Point","coordinates":[170.5036,-45.8788]},"id":"2b55be17-e107-410d-b042-37721a11481b","properties":{"name":"dunedin-new_zealand"}},{"type":"Feature","geometry":{"type":"Point","coordinates":[144.9631,-37.8136]},"id":"331faaf6-38f2-4db0-a270-e8eeaebceb1a","properties":{"name":"victoria-australia"}},{"type":"Feature","geometry":{"type":"Point","coordinates":[19.0402,47.4979]},"id":"33ed17e0-c716-451c-809c-9404e039ace9","properties":{"name":"budapest-hungary"}},{"type":"Feature","geometry":{"type":"Point","coordinates":[-3.1791,51.4816]},"id":"2c120cb2-14c7-43d9-8388-34a109ce8429","properties":{"name":"cardiff-uk"}},{"type":"Feature","geometry":{"type":"Point","coordinates":[-71.8023,42.2373]},"id":"2b78aa4b-82a7-43e7-b0ec-6b11bbd3ce3e","properties":{"name":"massachusetts-usa"}},{"type":"Feature","geometry":{"type":"Point","coordinates":[-95.3698,29.7604]},"id":"34e996de-1782-4800-8e5f-3f058e9e07c0","properties":{"name":"houston-usa"}},{"type":"Feature","geometry":{"type":"Point","coordinates":[174.7691,-36.8667]},"id":"81bf78f7-ca63-4092-aa90-6d2b464e20ac","properties":{"name":"penrose-new_zealand"}},{"type":"Feature","geometry":{"type":"Point","coordinates":[166.4505,-22.2711]},"id":"7d247978-f267-40cf-acaa-41c4740526da","properties":{"name":"noumea-new_caledonia"}},{"type":"Feature","geometry":{"type":"Point","coordinates":[-83.4822,42.3086]},"id":"85aa3edb-d1f2-4721-ab1d-846b7868fcf5","properties":{"name":"canton-usa"}},{"type":"Feature","geometry":{"type":"Point","coordinates":[-87.6298,41.8781]},"id":"822a58ed-b449-475a-bf6d-c2fd988a5359","properties":{"name":"chicago-usa"}},{"type":"Feature","geometry":{"type":"Point","coordinates":[-95.997,41.2565]},"id":"851f3687-7d77-47d9-8a07-4b17e95e3579","properties":{"name":"omaha-usa"}},{"type":"Feature","geometry":{"type":"Point","coordinates":[-118.3531,33.9617]},"id":"862400d2-644b-4ec8-b017-02a10e18528f","properties":{"name":"inglewood-usa"}},{"type":"Feature","geometry":{"type":"Point","coordinates":[153.0251,-27.4698]},"id":"8597e12a-81ed-4cb4-a3d5-5272487958eb","properties":{"name":"brisbane-australia"}},{"type":"Feature","geometry":{"type":"Point","coordinates":[-118.2437,34.0522]},"id":"35042fb5-7adc-4ee5-b06a-17514136c0e8","properties":{"name":"los_angeles-usa"}},{"type":"Feature","geometry":{"type":"Point","coordinates":[9.9937,53.5511]},"id":"286eb3e6-959f-4f05-8116-3a0a43a6338e","properties":{"name":"hamburg-germany"}},{"type":"Feature","geometry":{"type":"Point","coordinates":[21.0122,52.2297]},"id":"3172eed0-89ea-44a1-bf66-02738cd2a998","properties":{"name":"warsaw-poland"}},{"type":"Feature","geometry":{"type":"Point","coordinates":[-122.3321,47.6062]},"id":"30b03a27-5d20-4ab1-af28-db662919948c","properties":{"name":"seattle-usa"}},{"type":"Feature","geometry":{"type":"Point","coordinates":[-75.1652,39.9526]},"id":"2b4ddfbc-34b0-466b-9b82-834898a87139","properties":{"name":"philadelphia-usa"}},{"type":"Feature","geometry":{"type":"Point","coordinates":[-122.2711,37.8044]},"id":"2ab18604-077b-4c6f-8b04-dd3d3af07528","properties":{"name":"oakland-usa"}},{"type":"Feature","geometry":{"type":"Point","coordinates":[-84.512,39.1031]},"id":"2da68a7e-f1cc-4454-874d-8ac07a3e51ca","properties":{"name":"cincinnati-usa"}},{"type":"Feature","geometry":{"type":"Point","coordinates":[8.8946,47.5554]},"id":"4ee8c259-702b-4f4a-b3b8-cc799d9c2d44","properties":{"name":"frauenfeld-switzerland"}},{"type":"Feature","geometry":{"type":"Point","coordinates":[147.2792,-32.0102]},"id":"a27a8556-3433-4a97-adcf-5c3b59e6ed31","properties":{"name":"new_south_wales-australia"}},{"type":"Feature","geometry":{"type":"Point","coordinates":[-81.5158,27.9944]},"id":"a63f2a2e-049c-49c5-b3d4-c0567652468c","properties":{"name":"florida-usa"}},{"type":"Feature","geometry":{"type":"Point","coordinates":[54.3773,24.4539]},"id":"a2f00a53-1180-4ebd-89c7-31da66300d73","properties":{"name":"abu_dhabi-united_arab_emirates"}},{"type":"Feature","geometry":{"type":"Point","coordinates":[-115.1398,36.1699]},"id":"a10fd580-7db7-43a4-bd89-cf9136c6da37","properties":{"name":"las_vegas-usa"}},{"type":"Feature","geometry":{"type":"Point","coordinates":[-81.1637,33.8361]},"id":"71e2a9c8-6d25-49a2-808e-fb11fb3d7e1a","properties":{"name":"south_carolina-usa"}},{"type":"Feature","geometry":{"type":"Point","coordinates":[5.4697,51.4416]},"id":"6e70ef01-5209-4557-a242-0501109e8720","properties":{"name":"eindhoven-netherlands"}},{"type":"Feature","geometry":{"type":"Point","coordinates":[114.4158,23.1123]},"id":"70f38f58-5d40-40a3-a8d2-bee260c60f5c","properties":{"name":"huizhou-china"}},{"type":"Feature","geometry":{"type":"Point","coordinates":[19.9445,50.0647]},"id":"744cb3fc-d7b4-49f7-b2ae-b3928a2918af","properties":{"name":"krakow-poland"}},{"type":"Feature","geometry":{"type":"Point","coordinates":[-71.2082,46.8139]},"id":"6b654982-5630-4687-aa99-cc19a14019d8","properties":{"name":"quebec-canada"}},{"type":"Feature","geometry":{"type":"Point","coordinates":[-79.3832,43.6532]},"id":"63afeb79-f9a0-41d8-940e-ffd64267694d","properties":{"name":"toronto-canada"}},{"type":"Feature","geometry":{"type":"Point","coordinates":[6.7735,51.2277]},"id":"55aa3f77-d4c8-4b81-b71a-21950333dc85","properties":{"name":"dusseldorf-germany"}},{"type":"Feature","geometry":{"type":"Point","coordinates":[151.2093,-33.8688]},"id":"534b06fe-37ba-44e4-a86b-4f15d5536528","properties":{"name":"sydney-australia"}},{"type":"Feature","geometry":{"type":"Point","coordinates":[-9.1393,38.7223]},"id":"ed101c0e-ea09-4066-8787-3c7711ad73aa","properties":{"name":"lisbon-portugal"}},{"type":"Feature","geometry":{"type":"Point","coordinates":[13.405,52.52]},"id":"fd8aca91-0d6f-478f-b7c4-7fea8ec6f8e5","properties":{"name":"berlin-germany"}},{"type":"Feature","geometry":{"type":"Point","coordinates":[-0.8891,41.6488]},"id":"fe5accac-9891-4b55-8f29-cb70a7559049","properties":{"name":"zaragoza-spain"}},{"type":"Feature","geometry":{"type":"Point","coordinates":[-2.0943,57.1497]},"id":"fea95ce8-4b30-4bb3-9378-6c102bff5b6c","properties":{"name":"aberdeen-uk"}},{"type":"Feature","geometry":{"type":"Point","coordinates":[22.2666,60.4518]},"id":"ee17d282-48fa-4c60-91cd-1782ebf319f5","properties":{"name":"turku-finland"}},{"type":"Feature","geometry":{"type":"Point","coordinates":[-93.265,44.9778]},"id":"f1c8d033-697e-4cd1-b9ab-fdce3bb87242","properties":{"name":"minneapolis-usa"}},{"type":"Feature","geometry":{"type":"Point","coordinates":[-122.4194,37.7749]},"id":"f6324d48-e74f-42f2-958b-01dc816a5072","properties":{"name":"san_francisco-usa"}},{"type":"Feature","geometry":{"type":"Point","coordinates":[136.9066,35.1815]},"id":"deb3f735-a4a3-4103-a94b-a0ec7d89aeaa","properties":{"name":"nagoya-japan"}},{"type":"Feature","geometry":{"type":"Point","coordinates":[-74.0721,4.711]},"id":"df139c4f-e0d2-4b5a-8ada-6d8c313552e3","properties":{"name":"bogota-colombia"}},{"type":"Feature","geometry":{"type":"Point","coordinates":[-74.1724,40.7357]},"id":"e0154839-2b09-4176-beaf-49fa026876ec","properties":{"name":"newark-usa"}},{"type":"Feature","geometry":{"type":"Point","coordinates":[135.5022,34.6937]},"id":"e65689b7-4137-4621-b683-e6ad1ebdce7d","properties":{"name":"osaka-japan"}},{"type":"Feature","geometry":{"type":"Point","coordinates":[-116.4194,38.8026]},"id":"0178b95f-6ecc-45ac-bad4-ff972cbe1086","properties":{"name":"nevada-usa"}},{"type":"Feature","geometry":{"type":"Point","coordinates":[-43.1729,-22.9068]},"id":"049c13fc-aa4c-41c7-ad62-c88c5d57c480","properties":{"name":"rio_de_janeiro-brazil"}},{"type":"Feature","geometry":{"type":"Point","coordinates":[-4.2518,55.8642]},"id":"09aa8243-1194-4ffe-9ac3-9236dbea8c8c","properties":{"name":"glasgow-uk"}},{"type":"Feature","geometry":{"type":"Point","coordinates":[4.8357,45.764]},"id":"c76e46ac-0499-48fa-a786-0bc2d86ce1fd","properties":{"name":"lyon-france"}},{"type":"Feature","geometry":{"type":"Point","coordinates":[10.2039,56.1629]},"id":"c488f952-703b-467a-9176-839482f2b8ae","properties":{"name":"aarhus-denmark"}},{"type":"Feature","geometry":{"type":"Point","coordinates":[-94.6859,46.7296]},"id":"c55f129a-2692-4045-b22a-1014ec6b2f82","properties":{"name":"minnesota-usa"}},{"type":"Feature","geometry":{"type":"Point","coordinates":[-117.2571,32.9595]},"id":"c5696670-b05d-4fec-9608-9416e91c78a1","properties":{"name":"del_mar-usa"}},{"type":"Feature","geometry":{"type":"Point","coordinates":[110.3673,-7.7972]},"id":"89e6c474-d0f0-4a03-b1a6-ad67a8f7da6f","properties":{"name":"yogyakarta-indonesia"}},{"type":"Feature","geometry":{"type":"Point","coordinates":[51.531,25.276]},"id":"8250af8d-d5ff-4723-b231-3aa177703666","properties":{"name":"doha-qatar"}},{"type":"Feature","geometry":{"type":"Point","coordinates":[0.682,51.5382]},"id":"84e4f94c-48e4-42cc-95ad-1d1a00f15501","properties":{"name":"westcliff_on_sea-uk"}},{"type":"Feature","geometry":{"type":"Point","coordinates":[12.3731,51.3397]},"id":"87311130-7bd1-4f1b-8802-2f2250d53ccc","properties":{"name":"leipzig-germany"}},{"type":"Feature","geometry":{"type":"Point","coordinates":[-71.0589,42.3601]},"id":"839b07fb-c058-4094-a6ac-0ac457fd6a2c","properties":{"name":"boston-usa"}},{"type":"Feature","geometry":{"type":"Point","coordinates":[11.582,48.1351]},"id":"804f13f0-d26f-49e8-a7de-9977f733d81f","properties":{"name":"munich-germany"}},{"type":"Feature","geometry":{"type":"Point","coordinates":[-2.934,43.263]},"id":"7e386ae2-a878-4ac1-9710-f0c8e53578a6","properties":{"name":"bilbao-spain"}},{"type":"Feature","geometry":{"type":"Point","coordinates":[-6.2603,53.3498]},"id":"761d0bc2-3685-4b8e-86b5-3545443c3064","properties":{"name":"dublin-ireland"}},{"type":"Feature","geometry":{"type":"Point","coordinates":[-51.2177,-30.0346]},"id":"7b9ef993-922a-40dc-b3c6-a091a090fd98","properties":{"name":"porto_alegre-brazil"}},{"type":"Feature","geometry":{"type":"Point","coordinates":[-111.0937,39.32]},"id":"cbd1e7c4-2d34-4a2f-ab9e-85a6e42766c6","properties":{"name":"utah-usa"}},{"type":"Feature","geometry":{"type":"Point","coordinates":[16.3738,48.2082]},"id":"d4aa34cc-ead7-4db2-bb30-5b080f390b48","properties":{"name":"vienna-austria"}},{"type":"Feature","geometry":{"type":"Point","coordinates":[-83.0364,42.3149]},"id":"ca2971d5-64fd-4169-8faa-417835bde760","properties":{"name":"windsor-canada"}},{"type":"Feature","geometry":{"type":"Point","coordinates":[8.6947,53.8612]},"id":"a949920c-848b-427e-9337-6311a5e4ced9","properties":{"name":"cuxhaven-germany"}},{"type":"Feature","geometry":{"type":"Point","coordinates":[-0.086,39.8895]},"id":"a85a15fb-d3b5-4cb2-965f-a2a0c34598f6","properties":{"name":"burriana-spain"}},{"type":"Feature","geometry":{"type":"Point","coordinates":[-120.5542,43.8041]},"id":"aa6ddb96-43d2-4917-bdb2-e7768e380f41","properties":{"name":"oregon-usa"}},{"type":"Feature","geometry":{"type":"Point","coordinates":[-79.3832,43.6532]},"id":"a8d56aa6-c706-4f97-a054-969064f06788","properties":{"name":"toronto-canada"}},{"type":"Feature","geometry":{"type":"Point","coordinates":[27.5615,53.9045]},"id":"abeaefc7-cf82-4709-bb39-4cb49e35af0b","properties":{"name":"minsk-belarus"}},{"type":"Feature","geometry":{"type":"Point","coordinates":[-46.6333,-23.5505]},"id":"b707219f-b655-4800-9a35-c52cd6e2e8d3","properties":{"name":"sao_paulo-brazil"}},{"type":"Feature","geometry":{"type":"Point","coordinates":[6.8259,47.5151]},"id":"c1e7a08d-127e-4d46-9b18-d82f3a9c1e63","properties":{"name":"sochaux-france"}},{"type":"Feature","geometry":{"type":"Point","coordinates":[5.9815,50.8983]},"id":"bc5b85e0-08bd-4d40-8e7a-0c41ec2a0010","properties":{"name":"landgraaf-netherlands"}},{"type":"Feature","geometry":{"type":"Point","coordinates":[-77.1945,41.2033]},"id":"dc20c5c1-fe12-460b-8045-99b49059d104","properties":{"name":"pennsylvania-usa"}},{"type":"Feature","geometry":{"type":"Point","coordinates":[-80.8431,35.2271]},"id":"dd125097-7a5c-475d-a564-54c0e8562c91","properties":{"name":"charlotte-usa"}},{"type":"Feature","geometry":{"type":"Point","coordinates":[-117.9145,33.8366]},"id":"db36b0ca-2477-4140-99c7-d77deaff3970","properties":{"name":"anaheim-usa"}},{"type":"Feature","geometry":{"type":"Point","coordinates":[11.9746,57.7089]},"id":"20aedfbd-da10-4f05-a854-17fb767db51c","properties":{"name":"gothenburg-sweden"}},{"type":"Feature","geometry":{"type":"Point","coordinates":[6.7931,49.1541]},"id":"25ed56ab-22ad-4fd6-b8cc-69778be649f4","properties":{"name":"freyming_merlebach-france"}},{"type":"Feature","geometry":{"type":"Point","coordinates":[121.5654,25.033]},"id":"1ce986bf-d0ed-4726-8555-6a91aa00b2e1","properties":{"name":"taipei-taiwan"}},{"type":"Feature","geometry":{"type":"Point","coordinates":[2.1734,41.3851]},"id":"f8910a4a-5bd1-44bf-80f7-0a6371a8ffc2","properties":{"name":"barcelona-spain"}},{"type":"Feature","geometry":{"type":"Point","coordinates":[-87.885,41.9834]},"id":"f93dd724-3892-46e7-972b-4b982c2dde43","properties":{"name":"rosemont-usa"}},{"type":"Feature","geometry":{"type":"Point","coordinates":[-73.9442,40.6782]},"id":"f790aa53-489f-4112-b525-e55527178cbf","properties":{"name":"brooklyn-usa"}},{"type":"Feature","geometry":{"type":"Point","coordinates":[-43.9378,-19.9167]},"id":"f890aa0b-63e8-4e43-b5dd-380a89e53d6b","properties":{"name":"belo_horizonte-brazil"}},{"type":"Feature","geometry":{"type":"Point","coordinates":[174.7633,-36.8485]},"id":"d2026ccc-dd20-4a7b-8344-dcee9d55ffe2","properties":{"name":"auckland-new_zealand"}},{"type":"Feature","geometry":{"type":"Point","coordinates":[18.0686,59.3293]},"id":"b78b8716-7232-4f16-85f1-15bc537145f0","properties":{"name":"stockholm-sweden"}},{"type":"Feature","geometry":{"type":"Point","coordinates":[4.6877,50.9675]},"id":"bcbe802d-d1d0-428c-85ac-ef61c5a73458","properties":{"name":"werchter-belgium"}},{"type":"Feature","geometry":{"type":"Point","coordinates":[-71.5724,43.1939]},"id":"ed62a85e-d63e-46e9-8f02-3babbb7b9f54","properties":{"name":"new_hampshire-usa"}},{"type":"Feature","geometry":{"type":"Point","coordinates":[9.9222,57.0488]},"id":"de7c14bb-5d33-4ee4-9664-282903c12fa2","properties":{"name":"aalborg-denmark"}},{"type":"Feature","geometry":{"type":"Point","coordinates":[-79.9959,40.4406]},"id":"daeedc1b-f700-4e3b-a634-13a8ff644278","properties":{"name":"pittsburgh-usa"}},{"type":"Feature","geometry":{"type":"Point","coordinates":[-81.0348,34.0007]},"id":"eb2af6b2-6ecb-4bec-9f1b-76cd159179f8","properties":{"name":"columbia-usa"}},{"type":"Feature","geometry":{"type":"Point","coordinates":[-77.0428,-12.0464]},"id":"dfff1782-f98c-4a43-a918-9a1e81ab1be5","properties":{"name":"lima-peru"}},{"type":"Feature","geometry":{"type":"Point","coordinates":[6.5665,53.2194]},"id":"c6b43540-6aed-4ff0-8206-aedc0ec84542","properties":{"name":"groningen-netherlands"}},{"type":"Feature","geometry":{"type":"Point","coordinates":[-3.7038,40.4168]},"id":"2160cc41-7394-43a5-957e-5c7b27b3a95f","properties":{"name":"madrid-spain"}},{"type":"Feature","geometry":{"type":"Point","coordinates":[23.7275,37.9838]},"id":"220ee5a3-4921-4374-94a4-fa6b939cc525","properties":{"name":"athens-greece"}},{"type":"Feature","geometry":{"type":"Point","coordinates":[-111.0937,34.0489]},"id":"703655c7-58f6-42fa-9818-35f2658c5693","properties":{"name":"arizona-usa"}},{"type":"Feature","geometry":{"type":"Point","coordinates":[8.6821,50.1109]},"id":"7c849cb8-9e75-4b9a-a72e-8a09de1ba1d3","properties":{"name":"frankfurt-germany"}},{"type":"Feature","geometry":{"type":"Point","coordinates":[2.2347,48.8397]},"id":"72f013d6-3da5-4621-8943-b090e03908ef","properties":{"name":"boulogne_billancourt-france"}},{"type":"Feature","geometry":{"type":"Point","coordinates":[2.3522,48.8566]},"id":"6bd54342-811d-4058-bb94-4004cedb5346","properties":{"name":"paris-france"}},{"type":"Feature","geometry":{"type":"Point","coordinates":[2.78,50.291]},"id":"6da91ed8-f656-44f9-b649-49cf66595f39","properties":{"name":"arras-france"}},{"type":"Feature","geometry":{"type":"Point","coordinates":[126.978,37.5665]},"id":"6dbd56b7-014f-4850-a3bf-c932ca0ff65a","properties":{"name":"seoul-south_korea"}},{"type":"Feature","geometry":{"type":"Point","coordinates":[-123.1216,49.2827]},"id":"7481cf42-a876-414c-b2a0-a27094816fcc","properties":{"name":"vancouver-canada"}},{"type":"Feature","geometry":{"type":"Point","coordinates":[-58.5128,-34.4715]},"id":"61f2ef1e-befd-4673-953c-4587d51ca2e6","properties":{"name":"san_isidro-argentina"}},{"type":"Feature","geometry":{"type":"Point","coordinates":[5.9297,48.6695]},"id":"63602e26-85c1-4edc-ac4d-22389b446c16","properties":{"name":"pagney_derriere_barine-france"}},{"type":"Feature","geometry":{"type":"Point","coordinates":[4.3601,43.8367]},"id":"6153a6cb-a1bd-47c0-9e88-d9074ffe2ed1","properties":{"name":"nimes-france"}},{"type":"Feature","geometry":{"type":"Point","coordinates":[-77.0369,38.9072]},"id":"5b94f6ce-545d-4196-812b-6c5d2c970ae6","properties":{"name":"washington-usa"}},{"type":"Feature","geometry":{"type":"Point","coordinates":[-73.592,40.7007]},"id":"5cbd9342-c5db-43ef-a5be-986dbe17b9d8","properties":{"name":"uniondale-usa"}},{"type":"Feature","geometry":{"type":"Point","coordinates":[-47.9292,-15.7801]},"id":"63955514-4467-4bba-8ade-533836cbcc31","properties":{"name":"brasilia-brazil"}},{"type":"Feature","geometry":{"type":"Point","coordinates":[7.3606,46.2331]},"id":"5108473e-8e9f-4bad-8124-696e69473aab","properties":{"name":"sion-switzerland"}},{"type":"Feature","geometry":{"type":"Point","coordinates":[9.9304,56.0384]},"id":"5808603e-6003-439e-bb6b-69a61e2e9cdb","properties":{"name":"skanderborg-denmark"}},{"type":"Feature","geometry":{"type":"Point","coordinates":[23.5841,46.7712]},"id":"554547f6-7736-478b-81b8-71faef901c97","properties":{"name":"napoca-romania"}},{"type":"Feature","geometry":{"type":"Point","coordinates":[-94.5786,39.0997]},"id":"50a7820f-dd7c-478c-95d4-95b70ed73e12","properties":{"name":"kansas_city-usa"}},{"type":"Feature","geometry":{"type":"Point","coordinates":[-86.1581,39.7684]},"id":"585b79fb-8953-44d1-bd99-ec569f0ea7c7","properties":{"name":"indianapolis-usa"}},{"type":"Feature","geometry":{"type":"Point","coordinates":[144.9631,-37.8136]},"id":"54b034a2-bb70-49d5-8060-6fd46590a3c8","properties":{"name":"melbourne-australia"}},{"type":"Feature","geometry":{"type":"Point","coordinates":[-87.0739,20.6296]},"id":"5b045068-e7d1-4be8-b805-50a67a56a20b","properties":{"name":"playa_del_carmen-mexico"}},{"type":"Feature","geometry":{"type":"Point","coordinates":[25.466,65.0121]},"id":"5f281c84-6da0-4c04-a914-280f989c45d8","properties":{"name":"oulu-finland"}},{"type":"Feature","geometry":{"type":"Point","coordinates":[-68.93,12.1224]},"id":"5c2741a8-9380-4c99-b439-d27ab577404e","properties":{"name":"willemstad-netherlands_antilles"}},{"type":"Feature","geometry":{"type":"Point","coordinates":[8.466,49.4875]},"id":"60aea234-4482-4a2b-b202-dc5ee5dfcb51","properties":{"name":"mannheim-germany"}},{"type":"Feature","geometry":{"type":"Point","coordinates":[72.8777,19.076]},"id":"1538bde0-dec1-486e-bbb9-b8c66d7bed32","properties":{"name":"mumbai-india"}},{"type":"Feature","geometry":{"type":"Point","coordinates":[10.0753,50.8345]},"id":"1763eb2b-b8b7-4918-960b-bcc2fadef523","properties":{"name":"merkers-germany"}},{"type":"Feature","geometry":{"type":"Point","coordinates":[-73.5673,45.5017]},"id":"17376f23-63cb-4a24-8630-938cb9446271","properties":{"name":"montreal-usa"}},{"type":"Feature","geometry":{"type":"Point","coordinates":[120.9842,14.5995]},"id":"1aeeb748-28f6-4673-8ef3-a47ec1b072a3","properties":{"name":"manila-philippines"}},{"type":"Feature","geometry":{"type":"Point","coordinates":[9.4897,53.1663]},"id":"1644cce4-de6a-43e8-88d5-d313eb490564","properties":{"name":"scheessel-germany"}},{"type":"Feature","geometry":{"type":"Point","coordinates":[-2.2426,53.4808]},"id":"10448ee6-2b5a-4b75-becd-ba2766130238","properties":{"name":"manchester-uk"}},{"type":"Feature","geometry":{"type":"Point","coordinates":[10.7522,59.9139]},"id":"13c0c22f-129c-4d0f-badf-8795dbb8d7db","properties":{"name":"oslo-norway"}},{"type":"Feature","geometry":{"type":"Point","coordinates":[-89.3985,40.6331]},"id":"fba4d386-d3b5-4de4-a728-74eca457634d","properties":{"name":"illinois-usa"}},{"type":"Feature","geometry":{"type":"Point","coordinates":[-69.4455,45.2538]},"id":"fe609ff7-bd25-4bf2-b39c-cc9090e8cd73","properties":{"name":"maine-usa"}},{"type":"Feature","geometry":{"type":"Point","coordinates":[9.19,45.4642]},"id":"fc58a7ff-e717-445f-b40b-14b004e1a463","properties":{"name":"milan-italy"}},{"type":"Feature","geometry":{"type":"Point","coordinates":[100.5018,13.7563]},"id":"fbda25be-dd12-4398-a1ae-1d6a266b44e2","properties":{"name":"bangkok-thailand"}},{"type":"Feature","geometry":{"type":"Point","coordinates":[119.9544,31.8107]},"id":"ebcabd98-3369-4e96-adf3-d2b792f9cf9c","properties":{"name":"changzhou-china"}},{"type":"Feature","geometry":{"type":"Point","coordinates":[46.6753,24.7136]},"id":"13154a17-fd6b-4157-a8c3-9b83274d6934","properties":{"name":"riyadh-saudi_arabia"}},{"type":"Feature","geometry":{"type":"Point","coordinates":[14.4378,50.0755]},"id":"17910000-4dd9-4ae9-b551-c198f98caec9","properties":{"name":"prague-czechia"}},{"type":"Feature","geometry":{"type":"Point","coordinates":[-99.1332,19.4326]},"id":"165bef1a-2c3d-499c-8441-de6b192b64e3","properties":{"name":"mexico_city-mexico"}},{"type":"Feature","geometry":{"type":"Point","coordinates":[-79.0193,35.7596]},"id":"10b9eb73-7998-4ca6-a4f2-8bab83b5ad1d","properties":{"name":"north_carolina-usa"}},{"type":"Feature","geometry":{"type":"Point","coordinates":[-90.0715,29.9511]},"id":"0c876713-2dc3-43c4-8929-15969593b92e","properties":{"name":"new_orleans-usa"}},{"type":"Feature","geometry":{"type":"Point","coordinates":[-0.1276,51.5074]},"id":"b929be52-0eef-4a4b-9f8c-38206d32dd1e","properties":{"name":"london-uk"}},{"type":"Feature","geometry":{"type":"Point","coordinates":[6.6323,46.5197]},"id":"aee7268b-04d9-4176-b1d8-bd15200365cf","properties":{"name":"lausanne-switzerland"}},{"type":"Feature","geometry":{"type":"Point","coordinates":[6.4417,51.1805]},"id":"b4e3a27c-7359-463e-ad4d-edadcfa367f0","properties":{"name":"monchengladbach-germany"}},{"type":"Feature","geometry":{"type":"Point","coordinates":[-100.3161,25.6866]},"id":"ae00ef2a-e84f-4de8-b274-dd2ff63a71ee","properties":{"name":"monterrey-mexico"}},{"type":"Feature","geometry":{"type":"Point","coordinates":[106.8456,-6.2088]},"id":"b4a66394-95c5-4023-9d2c-3e9e3d90ed87","properties":{"name":"jakarta-indonesia"}},{"type":"Feature","geometry":{"type":"Point","coordinates":[14.306,46.636]},"id":"e603661a-89fa-4714-9576-4a7888d2ad71","properties":{"name":"klagenfurt-austria"}},{"type":"Feature","geometry":{"type":"Point","coordinates":[-91.8318,37.9643]},"id":"e62886f2-95de-4238-80f7-76b5e942755d","properties":{"name":"missouri-usa"}},{"type":"Feature","geometry":{"type":"Point","coordinates":[-82.9001,32.1656]},"id":"99c5996d-7e32-4982-b52d-abea3231e0d9","properties":{"name":"georgia-usa"}},{"type":"Feature","geometry":{"type":"Point","coordinates":[4.9041,52.3676]},"id":"9ae0a14b-de62-4c45-b763-478b7c449ce4","properties":{"name":"amsterdam-netherlands"}},{"type":"Feature","geometry":{"type":"Point","coordinates":[11.2558,43.7696]},"id":"9aa58654-cf67-4f71-b0fd-77e6f5420081","properties":{"name":"florence-italy"}},{"type":"Feature","geometry":{"type":"Point","coordinates":[114.1694,22.3193]},"id":"905402d8-e170-41f8-913e-f9a567093517","properties":{"name":"hong_kong-china"}}]}
